     2.10           OBSERVATION DATA    G (GPS)             RINEX VERSION / TYPE
JPS2RIN 1.05        RUN BY              19-DEC-01 19:32     PGM / RUN BY / DATE
build August 8, 2000                                        COMMENT
RUN BY;COMMENT;MARKER NAME;MARKER NUMBER;OBSERVER;AGENCY;   COMMENT
ANT #;ANT TYPE - You can set in profile.                    COMMENT
kai19a0001.jps                                              COMMENT
Site                                                        MARKER NAME
                                                            MARKER NUMBER
OBSERVER            AGENCY                                  OBSERVER / AGENCY
MT300402820         JPS EUROCARD        2.2 Apr,25,2001 r   REC # / TYPE / VERS
kai19a0001          -Unknown-                               ANT # / TYPE
  3427849.9403   603878.7148  5326830.5034                  APPROX POSITION XYZ
        0.0000        0.0000        0.0000                  ANTENNA: DELTA H/E/N
     1     1                                                WAVELENGTH FACT L1/2
     7    L1    L2    C1    P1    P2    D1    D2            # / TYPES OF OBSERV
  2001    12    19    14    50    0.0000000     GPS         TIME OF FIRST OBS
  2001    12    19    14    54   59.0000000     GPS         TIME OF LAST OBS
     1.000                                                  INTERVAL
    13                                                      LEAP SECONDS
     9                                                      # OF SATELLITES
   G 1   300   300   300   300   300   300   300            PRN / # OF OBS
   G 5   300   300   300   300   300   300   300            PRN / # OF OBS
   G 6   300   300   300   300   300   300   300            PRN / # OF OBS
   G10   300   300   300   300   300   300   300            PRN / # OF OBS
   G17   300   300   300   300   300   300   300            PRN / # OF OBS
   G24   300   300   300   300   300   300   300            PRN / # OF OBS
   G25   300   300   300   300   300   300   300            PRN / # OF OBS
   G29   216     0   216     0     0   216     0            PRN / # OF OBS
   G30   300   300   300   300   300   300   300            PRN / # OF OBS
                                                            END OF HEADER
 01 12 19 14 50  0.0000000  0  8G10G25G30G 5G 6G17G24G 1            
 132471063.001   103224230.3014   25208406.818 5  25208405.60941  25208412.01341
      2678.560        2087.206  
 114723210.450    89394723.6874   21831099.654 8  21831099.57845  21831103.70245
       563.701         439.253  
 109250350.560    85130160.0404   20789650.095 8  20789650.33145  20789653.46046
     -2188.482       -1705.307  
 123708675.184    96396380.3244   23540978.056 6  23540976.36142  23540981.34642
     -3699.863       -2882.961  
 108706483.534    84706364.4984   20686154.114 8  20686153.16646  20686156.62546
       522.033         406.800  
 135074774.028   105253087.9004   25703875.417 6  25703873.51141  25703884.49341
      3452.847        2690.550  
 121569544.897    94729537.2734   23133913.742 7  23133913.98243  23133919.40543
     -2252.980       -1755.577  
 130947307.852   102036872.5674   24918444.982 6  24918444.54942  24918450.68042
      1350.660        1052.415  
 01 12 19 14 50  1.0000000  0  8G10G25G30G 5G 6G17G24G 1            
 132468384.055   103222142.8064   25207898.461 5  25207895.38141  25207902.92241
      2678.530        2087.125  
 114722646.706    89394284.4044   21830992.726 8  21830992.27545  21830996.53845
       563.237         438.893  
 109252538.930    85131865.2684   20790066.725 8  20790066.75645  20790069.87545
     -2188.902       -1705.629  
 123712374.753    96399263.1074   23541682.714 6  23541681.32342  23541685.58742
     -3699.939       -2883.019  
 108705961.389    84705957.6304   20686054.691 8  20686053.81646  20686057.30146
       521.612         406.461  
 135071320.624   105250396.9664   25703217.373 6  25703217.35541  25703229.19241
      3453.393        2690.835  
 121571797.775    94731292.7574   23134342.827 7  23134342.68343  23134348.47443
     -2253.260       -1755.798  
 130945957.090   102035820.0174   24918187.929 6  24918187.59542  24918194.22142
      1350.353        1052.215  
 01 12 19 14 50  2.0000000  0  8G10G25G30G 5G 6G17G24G 1            
 132465705.769   103220055.8484   25207389.414 5  25207384.59141  25207392.41941
      2678.452        2087.063  
 114722083.920    89393845.8764   21830885.346 8  21830885.11945  21830889.33345
       562.450         438.280  
 109254728.099    85133571.1124   20790483.237 8  20790483.16145  20790486.46145
     -2189.370       -1706.001  
 123716074.874    96402146.3234   23542386.605 6  23542386.09742  23542389.28142
     -3700.192       -2883.258  
 108705440.095    84705551.4324   20685955.274 7  20685954.47745  20685958.14046
       521.037         405.985  
 135067867.528   105247706.2494   25702560.982 6  25702560.06641  25702571.47941
      3453.120        2690.710  
 121574051.562    94733048.9584   23134772.050 7  23134771.93443  23134777.04843
     -2254.048       -1756.385  
 130944607.237   102034768.1824   24917931.319 6  24917930.39542  24917936.28742
      1349.625        1051.652  
 01 12 19 14 50  3.0000000  0  8G10G25G30G 5G 6G17G24G 1            
 132463027.635   103217968.9964   25206878.364 5  25206875.65041  25206883.09541
      2678.312        2086.961  
 114721521.643    89393407.7404   21830778.441 8  21830778.05845  21830782.29145
       562.231         438.090  
 109256917.668    85135277.2714   20790899.969 8  20790899.82345  20790903.15546
     -2189.588       -1706.194  
 123719775.058    96405029.5864   23543090.316 6  23543090.75942  23543093.31242
     -3699.989       -2883.146  
 108704919.227    84705145.5634   20685855.715 8  20685855.32346  20685858.90046
       520.902         405.887  
 135064414.284   105245015.3944   25701904.227 6  25701903.23741  25701911.54641
      3453.436        2690.949  
 121576305.769    94734805.4834   23135201.543 7  23135200.92643  23135205.92443
     -2254.292       -1756.594  
 130943257.783   102033716.6664   24917673.995 6  24917674.25542  24917679.75342
      1349.518        1051.586  
 01 12 19 14 50  4.0000000  0  8G10G25G30G 5G 6G17G24G 1            
 132460349.576   103215882.1874   25206369.816 5  25206366.11241  25206374.33941
      2677.964        2086.686  
 114720959.803    89392969.9454   21830671.694 8  21830671.20145  21830675.30045
       561.359         437.424  
 109259107.496    85136983.6294   20791316.828 8  20791316.48745  20791319.86245
     -2190.208       -1706.641  
 123723475.241    96407912.8554   23543793.640 6  23543794.68042  23543797.38942
     -3700.377       -2883.376  
 108704398.677    84704739.9434   20685756.711 8  20685756.37146  20685759.94646
       520.109         405.284  
 135060960.850   105242324.3944   25701247.341 6  25701247.52241  25701255.15441
      3453.409        2691.027  
 121578560.342    94736562.2944   23135629.933 7  23135629.83643  23135635.03643
     -2254.954       -1757.101  
 130941908.768   102032665.4884   24917416.546 5  24917418.55941  24917423.43942
      1348.732        1050.951  
 01 12 19 14 50  5.0000000  0  8G10G25G30G 5G 6G17G24G 1            
 132457671.840   103213795.6274   25205857.938 5  25205856.87341  25205863.41941
      2677.083        2085.988  
 114720398.662    89392532.6934   21830564.691 7  21830564.29145  21830568.44045
       560.452         436.716  
 109261297.915    85138690.4494   20791733.617 8  20791733.36046  20791736.75045
     -2191.035       -1707.290  
 123727175.734    96410796.3524   23544497.668 6  23544498.34842  23544502.18042
     -3701.071       -2883.922  
 108703878.729    84704334.7944   20685658.021 8  20685657.38846  20685660.98945
       519.332         404.665  
 135057507.499   105239633.5004   25700590.297 6  25700590.11241  25700596.81441
      3453.043        2690.629  
 121580815.556    94738319.6084   23136058.423 7  23136058.62643  23136064.20243
     -2255.795       -1757.747  
 130940560.357   102031614.7884   24917160.262 5  24917161.45541  24917166.57942
      1347.858        1050.296  
 01 12 19 14 50  6.0000000  0  8G10G25G30G 5G 6G17G24G 1            
 132454994.489   103211709.3884   25205348.762 5  25205347.04041  25205353.17841
      2676.756        2085.752  
 114719838.193    89392095.9634   21830458.118 8  21830457.65845  21830461.84445
       560.377         436.650  
 109263488.857    85140397.6774   20792150.410 8  20792150.24445  20792153.72246
     -2190.898       -1707.204  
 123730876.418    96413679.9974   23545201.638 6  23545202.11942  23545206.51742
     -3700.606       -2883.594  
 108703359.373    84703930.1004   20685559.470 8  20685558.69946  20685562.21246
       519.319         404.661  
 135054054.140   105236942.5634   25699932.611 6  25699932.33041  25699939.84841
      3453.583        2691.102  
 121583071.362    94740077.3824   23136487.806 7  23136488.21543  23136493.45743
     -2255.801       -1757.772  
 130939212.599   102030564.5744   24916903.459 6  24916904.23241  24916910.80241
      1347.680        1050.153  
 01 12 19 14 50  7.0000000  0  8G10G25G30G 5G 6G17G24G 1            
 132452317.257   103209623.2264   25204839.664 5  25204836.78941  25204842.34741
      2677.441        2086.396  
 114719278.297    89391659.6824   21830351.864 8  21830351.25845  21830355.45645
       559.659         436.097  
 109265680.233    85142105.2454   20792567.342 8  20792567.35545  20792570.77946
     -2191.618       -1707.752  
 123734577.277    96416563.7934   23545906.053 6  23545906.09242  23545910.74342
     -3701.034       -2883.927  
 108702840.472    84703525.7644   20685460.892 8  20685459.91046  20685463.51546
       518.754         404.223  
 135050600.739   105234251.6184   25699274.846 6  25699274.36341  25699282.51541
      3453.571        2691.055  
 121585327.659    94741835.5454   23136917.243 7  23136917.73743  23136922.68143
     -2256.411       -1758.273  
 130937865.304   102029514.7394   24916647.556 5  24916648.10141  24916653.86341
      1347.222        1049.836  
 01 12 19 14 50  8.0000000  0  8G10G25G30G 5G 6G17G24G 1            
 132449640.434   103207537.4064   25204329.706 5  25204327.99841  25204334.29241
      2676.753        2085.798  
 114718719.098    89391223.9474   21830245.410 8  21830244.96545  21830248.86245
       558.828         435.440  
 109267872.166    85143813.2414   20792984.328 8  20792984.53045  20792987.93446
     -2192.247       -1708.249  
 123738278.383    96419447.7644   23546610.706 6  23546610.30242  23546615.59742
     -3701.206       -2884.058  
 108702322.182    84703121.9024   20685362.099 8  20685361.29646  20685364.84346
       517.985         403.609  
 135047147.374   105231560.6734   25698617.129 6  25698616.23841  25698624.71141
      3453.269        2690.947  
 121587584.606    94743594.2044   23137347.047 7  23137347.08343  23137352.64343
     -2257.261       -1758.923  
 130936518.698   102028465.4314   24916391.448 6  24916390.97241  24916397.55541
      1346.244        1049.060  
 01 12 19 14 50  9.0000000  0  8G10G25G30G 5G 6G17G24G 1            
 132446963.966   103205451.8544   25203819.822 5  25203818.03741  25203824.81141
      2676.662        2085.690  
 114718160.643    89390788.7944   21830138.803 8  21830138.71745  21830142.73145
       558.297         435.024  
 109270064.717    85145521.7244   20793401.227 8  20793401.56845  20793405.13745
     -2192.679       -1708.588  
 123741979.825    96422332.0084   23547315.009 6  23547314.68342  23547320.18342
     -3701.378       -2884.230  
 108701804.534    84702718.5414   20685263.385 8  20685262.71645  20685266.31946
       517.419         403.160  
 135043694.145   105228869.8374   25697960.413 6  25697960.00341  25697967.85341
      3453.359        2690.934  
 121589842.215    94745353.3714   23137776.962 7  23137776.37943  23137782.29643
     -2257.818       -1759.325  
 130935172.765   102027416.6494   24916135.721 6  24916135.47341  24916141.28241
      1345.700        1048.617  
 01 12 19 14 50 10.0000000  0  8G10G25G30G 5G 6G17G24G 1            
 132444287.729   103203366.4744   25203311.660 5  25203308.62841  25203315.61541
      2676.089        2085.269  
 114717602.730    89390354.0554   21830032.336 8  21830032.28845  21830036.58345
       557.602         434.499  
 109272257.672    85147230.5194   20793818.641 8  20793818.95545  20793822.45846
     -2193.287       -1709.068  
 123745681.354    96425216.3074   23548019.623 6  23548018.76642  23548024.38942
     -3701.651       -2884.391  
 108701287.315    84702315.5094   20685164.685 8  20685164.23246  20685167.86545
       516.885         402.763  
 135040240.820   105226178.9384   25697303.937 6  25697303.44041  25697310.73941
      3453.226        2690.788  
 121592100.277    94747112.8864   23138206.437 7  23138205.63143  23138211.98943
     -2258.327       -1759.711  
 130933827.329   102026368.2564   24915879.672 6  24915879.44141  24915885.56041
      1344.944        1048.038  
 01 12 19 14 50 11.0000000  0  8G10G25G30G 5G 6G17G24G 1            
 132441611.840   103201281.3894   25202799.927 5  25202799.64741  25202807.26541
      2675.829        2085.001  
 114717045.531    89389919.8744   21829926.377 8  21829926.27245  21829930.49245
       556.829         433.897  
 109274451.193    85148939.7624   20794236.123 8  20794236.14745  20794239.85346
     -2193.822       -1709.485  
 123749383.186    96428100.8384   23548724.607 6  23548723.26342  23548729.81242
     -3702.070       -2884.729  
 108700770.723    84701912.9724   20685066.295 8  20685065.92246  20685069.63746
       516.241         402.241  
 135036787.542   105223488.1224   25696647.111 6  25696645.83141  25696652.73441
      3453.227        2690.728  
 121594358.976    94748872.9174   23138636.002 7  23138635.51043  23138641.62943
     -2259.154       -1760.410  
 130932482.497   102025320.3514   24915623.800 6  24915623.52641  24915629.13941
      1344.637        1047.720  
 01 12 19 14 50 12.0000000  0  8G10G25G30G 5G 6G17G24G 1            
 132438936.210   103199196.4854   25202290.758 5  25202290.42641  25202298.99941
      2675.806        2084.984  
 114716488.978    89389486.1994   21829820.585 8  21829820.37745  21829824.68745
       556.293         433.454  
 109276645.242    85150649.4114   20794654.090 8  20794653.67445  20794657.35646
     -2194.287       -1709.843  
 123753085.215    96430985.5424   23549428.082 6  23549427.41142  23549433.99542
     -3702.240       -2884.890  
 108700254.664    84701510.8544   20684968.112 8  20684967.65646  20684971.52946
       515.848         401.942  
 135033334.274   105220797.2624   25695989.249 6  25695989.73541  25695996.33241
      3453.487        2691.090  
 121596618.265    94750633.4074   23139066.107 7  23139065.82143  23139071.45243
     -2259.529       -1760.679  
 130931138.302   102024272.9014   24915367.904 6  24915367.84441  24915372.91441
      1343.916        1047.203  
 01 12 19 14 50 13.0000000  0  8G10G25G30G 5G 6G17G24G 1            
 132436261.056   103197111.9634   25201781.137 5  25201782.07941  25201789.99541
      2674.795        2084.241  
 114715933.240    89389053.1614   21829714.898 8  21829714.62945  21829719.04345
       555.439         432.790  
 109278839.965    85152359.5814   20795071.966 8  20795071.39245  20795075.01346
     -2195.036       -1710.434  
 123756787.646    96433870.5614   23550132.611 6  23550132.14742  23550138.13342
     -3702.510       -2885.085  
 108699739.340    84701109.3034   20684869.896 8  20684869.53446  20684873.26246
       515.014         401.315  
 135029881.194   105218106.5114   25695332.047 6  25695331.63341  25695339.80141
      3452.787        2690.531  
 121598878.294    94752394.4664   23139495.886 7  23139495.96643  23139501.72043
     -2260.385       -1761.339  
 130929794.804   102023225.9784   24915112.191 6  24915113.13841  24915116.82841
      1343.197        1046.616  
 01 12 19 14 50 14.0000000  0  8G10G25G30G 5G 6G17G24G 1            
 132433586.073   103195027.5734   25201273.703 5  25201273.31841  25201280.78741
      2674.635        2084.102  
 114715378.030    89388620.5304   21829609.277 8  21829608.95845  21829613.36245
       555.119         432.559  
 109281035.067    85154070.0494   20795489.719 8  20795489.24145  20795492.55345
     -2195.034       -1710.390  
 123760490.153    96436755.6354   23550836.924 6  23550836.48942  23550842.47942
     -3702.390       -2884.961  
 108699224.425    84700708.0714   20684772.278 8  20684771.61446  20684775.31545
       514.890         401.239  
 135026427.982   105215415.6974   25694675.400 6  25694672.93241  25694683.78141
      3453.399        2690.912  
 121601138.744    94754155.8554   23139926.055 7  23139926.10243  23139931.98943
     -2260.558       -1761.458  
 130928451.814   102022179.5034   24914856.795 6  24914856.85541  24914860.76541
      1342.879        1046.443  
 01 12 19 14 50 15.0000000  0  8G10G25G30G 5G 6G17G24G 1            
 132430911.320   103192943.3614   25200765.668 5  25200764.76841  25200771.51841
      2674.823        2084.288  
 114714823.430    89388188.3774   21829503.904 8  21829503.52945  21829507.84845
       554.313         431.920  
 109283230.651    85155780.8954   20795907.280 8  20795907.12945  20795910.45945
     -2195.754       -1710.979  
 123764192.853    96439640.8504   23551541.692 6  23551541.51542  23551546.53842
     -3702.839       -2885.308  
 108698710.042    84700307.2554   20684674.375 8  20684673.75946  20684677.50346
       514.183         400.656  
 135022974.755   105212724.8384   25694017.548 6  25694014.54241  25694026.54541
      3453.230        2690.911  
 121603399.753    94755917.6854   23140356.559 7  23140356.59043  23140361.89443
     -2261.209       -1761.986  
 130927109.396   102021133.4634   24914601.497 6  24914601.31441  24914606.22741
      1342.167        1045.853  
 01 12 19 14 50 16.0000000  0  8G10G25G30G 5G 6G17G24G 1            
 132428236.829   103190859.3394   25200256.747 5  25200255.78841  25200262.49241
      2674.385        2083.893  
 114714269.374    89387756.6504   21829398.359 8  21829397.89845  21829402.26045
       553.845         431.592  
 109285426.640    85157492.0594   20796324.808 8  20796325.00045  20796328.35846
     -2196.103       -1711.248  
 123767895.662    96442526.1424   23552245.962 6  23552246.12742  23552250.44942
     -3702.865       -2885.336  
 108698196.092    84699906.7774   20684576.623 8  20684575.99745  20684579.65046
       513.731         400.316  
 135019521.432   105210033.9264   25693360.153 6  25693357.46241  25693368.66841
      3453.296        2690.827  
 121605661.255    94757679.9044   23140787.010 7  23140786.74443  23140792.62843
     -2261.871       -1762.494  
 130925767.429   102020087.7644   24914346.209 6  24914345.82041  24914351.31141
      1341.726        1045.508  
 01 12 19 14 50 17.0000000  0  8G10G25G30G 5G 6G17G24G 1            
 132425562.294   103188775.2814   25199748.535 5  25199748.16641  25199753.16041
      2674.613        2084.020  
 114713715.692    89387325.2114   21829292.999 8  21829292.50145  21829296.82345
       553.456         431.249  
 109287622.867    85159203.4074   20796742.764 8  20796742.88645  20796746.35746
     -2196.306       -1711.416  
 123771598.420    96445411.4124   23552951.200 6  23552951.21242  23552955.40942
     -3702.848       -2885.312  
 108697682.428    84699506.5224   20684478.743 8  20684478.21845  20684481.93546
       513.479         400.102  
 135016067.866   105207342.8334   25692703.062 6  25692700.12941  25692710.71041
      3453.590        2691.063  
 121607923.031    94759442.3264   23141217.432 7  23141217.01443  23141222.71843
     -2261.935       -1762.541  
 130924425.818   102019042.3614   24914090.976 6  24914090.57641  24914095.28141
      1341.448        1045.278  
 01 12 19 14 50 18.0000000  0  8G10G25G30G 5G 6G17G24G 1            
 132422888.195   103186691.5714   25199239.463 5  25199238.05141  25199244.40141
      2674.193        2083.819  
 114713162.746    89386894.3454   21829187.739 8  21829187.21045  21829191.51445
       552.486         430.505  
 109289819.691    85160915.2164   20797160.360 8  20797160.89345  20797164.43245
     -2197.144       -1712.063  
 123775301.473    96448296.9094   23553656.066 6  23553655.25342  23553660.42742
     -3703.253       -2885.642  
 108697169.389    84699106.7484   20684380.735 8  20684380.52746  20684384.31946
       512.635         399.463  
 135012614.337   105204651.7804   25692045.778 6  25692043.00441  25692052.52841
      3453.551        2691.115  
 121610185.477    94761205.2684   23141648.101 7  23141647.76643  23141653.47943
     -2262.859       -1763.244  
 130923084.855   102017997.4814   24913835.319 6  24913835.43141  24913839.47541
      1340.533        1044.485  
 01 12 19 14 50 19.0000000  0  8G10G25G30G 5G 6G17G24G 1            
 132420214.403   103184608.0874   25198730.589 5  25198729.19141  25198734.25841
      2673.505        2083.230  
 114712610.507    89386464.0324   21829082.394 7  21829082.05145  21829086.50445
       551.713         429.882  
 109292017.093    85162627.4764   20797578.761 8  20797579.01645  20797582.65045
     -2197.840       -1712.610  
 123779004.789    96451182.6044   23554360.278 6  23554360.39042  23554365.35642
     -3703.539       -2885.851  
 108696656.960    84698707.4504   20684283.293 8  20684282.97446  20684286.71645
       511.944         398.913  
 135009160.910   105201960.8094   25691388.054 6  25691386.60341  25691394.04641
      3453.279        2690.960  
 121612448.552    94762968.7044   23142078.321 7  23142078.44843  23142084.39843
     -2263.522       -1763.779  
 130921744.560   102016953.1034   24913580.093 6  24913580.98141  24913584.33641
      1339.670        1043.942  
 01 12 19 14 50 20.0000000  0  8G10G25G30G 5G 6G17G24G 1            
 132417540.910   103182524.8404   25198220.082 5  25198219.80341  25198224.67441
      2673.593        2083.266  
 114712058.916    89386034.2224   21828977.773 8  21828977.09945  21828981.76245
       551.297         429.579  
 109294215.000    85164340.1334   20797997.243 8  20797997.25645  20798000.77946
     -2198.125       -1712.826  
 123782708.322    96454068.4784   23555065.667 6  23555064.71542  23555069.58142
     -3703.589       -2885.918  
 108696145.074    84698308.5854   20684185.991 8  20684185.80145  20684189.51446
       511.565         398.622  
 135005707.520   105199269.8524   25690730.402 6  25690731.01641  25690736.43241
      3453.396        2690.872  
 121614712.201    94764732.5804   23142508.972 7  23142508.95043  23142514.94143
     -2263.960       -1764.132  
 130920404.808   102015909.1514   24913325.069 6  24913325.90241  24913329.15341
      1339.462        1043.688  
 01 12 19 14 50 21.0000000  0  8G10G25G30G 5G 6G17G24G 1            
 132414867.681   103180441.8184   25197710.529 5  25197710.13841  25197717.41341
      2673.218        2083.017  
 114711507.930    89385604.8834   21828873.236 8  21828872.39245  21828876.83045
       550.835         429.216  
 109296413.385    85166053.1604   20798415.519 8  20798415.53845  20798419.13646
     -2198.378       -1713.003  
 123786412.056    96456954.5094   23555770.635 6  23555769.67642  23555774.44742
     -3703.487       -2885.828  
 108695633.695    84697910.1094   20684088.593 8  20684088.37846  20684092.01246
       511.349         398.440  
 135002254.113   105196578.8624   25690074.381 6  25690073.20041  25690079.68941
      3453.626        2691.194  
 121616976.395    94766496.8924   23142939.830 7  23142939.96343  23142946.06143
     -2264.361       -1764.445  
 130919065.647   102014865.6644   24913071.130 6  24913070.37241  24913074.56241
      1339.059        1043.427  
 01 12 19 14 50 22.0000000  0  8G10G25G30G 5G 6G17G24G 1            
 132412195.005   103178359.2504   25197202.031 5  25197203.28741  25197209.50141
      2672.530        2082.426  
 114710957.867    89385176.2674   21828768.504 8  21828767.69345  21828772.24845
       549.733         428.353  
 109298612.546    85167766.7884   20798833.993 8  20798834.03745  20798837.52745
     -2199.317       -1713.738  
 123790116.265    96459840.9104   23556475.280 6  23556475.11742  23556479.29342
     -3704.123       -2886.352  
 108695123.147    84697512.2824   20683991.286 8  20683991.17346  20683994.93446
       510.338         397.683  
 134998800.931   105193888.0734   25689416.947 6  25689416.12341  25689421.23341
      3453.221        2690.821  
 121619241.442    94768261.8704   23143371.252 7  23143371.02143  23143377.01543
     -2265.420       -1765.257  
 130917727.317   102013822.7964   24912816.933 6  24912815.14741  24912819.68341
      1337.907        1042.595  
 01 12 19 14 50 23.0000000  0  8G10G25G30G 5G 6G17G24G 1            
 132409522.683   103176276.9034   25196693.173 5  25196695.12641  25196701.31441
      2672.651        2082.592  
 114710408.508    89384748.1904   21828663.807 8  21828663.04745  21828667.68145
       548.996         427.797  
 109300812.265    85169480.8584   20799252.734 8  20799252.68045  20799256.09845
     -2200.062       -1714.335  
 123793820.760    96462727.5204   23557180.205 6  23557180.19942  23557183.97342
     -3704.649       -2886.765  
 108694613.200    84697114.9224   20683894.185 8  20683894.04546  20683897.95346
       509.615         397.090  
 134995347.839   105191197.3434   25688759.027 6  25688759.80141  25688766.02541
      3453.001        2690.706  
 121621507.094    94770027.3114   23143802.636 7  23143802.28643  23143808.13143
     -2265.986       -1765.702  
 130916389.671   102012780.4534   24912562.150 6  24912560.76941  24912566.12341
      1337.164        1041.904  
 01 12 19 14 50 24.0000000  0  8G10G25G30G 5G 6G17G24G 1            
 132406850.822   103174194.9414   25196187.722 5  25196186.41441  25196192.82541
      2671.572        2081.760  
 114709859.961    89384320.7554   21828559.247 8  21828558.85745  21828563.10145
       548.367         427.286  
 109303012.653    85171195.4484   20799671.764 8  20799671.47045  20799674.92745
     -2200.480       -1714.693  
 123797525.608    96465614.4114   23557884.674 6  23557884.98242  23557889.23942
     -3704.511       -2886.625  
 108694103.955    84696718.1084   20683797.124 8  20683796.94546  20683801.00246
       509.150         396.728  
 134991894.899   105188506.7394   25688103.079 6  25688102.34541  25688109.72841
      3453.122        2690.791  
 121623773.496    94771793.3364   23144233.464 7  23144233.47143  23144239.41143
     -2266.362       -1765.991  
 130915052.739   102011738.6794   24912308.001 6  24912306.79141  24912311.57741
      1336.709        1041.656  
 01 12 19 14 50 25.0000000  0  8G10G25G30G 5G 6G17G24G 1            
 132404178.994   103172113.0024   25195681.087 5  25195677.93641  25195685.01041
      2671.912        2081.996  
 114709311.788    89383893.6094   21828454.863 8  21828454.42045  21828458.68145
       548.126         427.096  
 109305213.282    85172910.2264   20800090.051 8  20800090.26445  20800093.66345
     -2200.646       -1714.797  
 123801230.426    96468501.2784   23558589.959 6  23558589.84642  23558594.29842
     -3704.672       -2886.753  
 108693594.997    84696321.5214   20683700.419 8  20683699.97246  20683704.08246
       508.980         396.587  
 134988441.733   105185816.0064   25687446.062 6  25687444.89541  25687453.82341
      3453.479        2690.888  
 121626040.214    94773559.6094   23144665.126 7  23144664.94543  23144670.31143
     -2266.774       -1766.332  
 130913716.122   102010697.1424   24912053.606 6  24912053.11541  24912056.98541
      1336.480        1041.452  
 01 12 19 14 50 26.0000000  0  9G10G25G30G 5G 6G29G17G24G 1         
 132401507.258   103170031.1184   25195172.999 5  25195169.19741  25195174.64241
      2671.590        2081.746  
 114708763.994    89383466.7554   21828350.722 7  21828350.10345  21828354.24745
       547.424         426.565  
 109307414.160    85174625.1994   20800508.995 8  20800509.09945  20800512.38046
     -2201.181       -1715.222  
 123804935.173    96471388.1074   23559295.732 6  23559294.78342  23559299.88642
     -3705.005       -2887.043  
 108693086.315    84695925.1464   20683603.748 8  20683603.20646  20683607.34646
       508.456         396.193  
 128165319.802                    24389050.268 4                                
     -3050.096                  
 134984988.283   105183125.0314   25686789.852 6  25686788.54041  25686797.66241
      3453.421        2690.960  
 121628307.210    94775326.1154   23145096.273 7  23145096.09243  23145101.75643
     -2267.317       -1766.779  
 130912379.860   102009655.9114   24911799.198 6  24911798.34541  24911804.11841
      1336.251        1041.173  
 01 12 19 14 50 27.0000000  0  9G10G25G30G 5G 6G29G17G24G 1         
 132398836.042   103167949.6424   25194663.661 5  25194660.16041  25194666.46341
      2670.915        2081.220  
 114708217.172    89383040.6674   21828246.649 8  21828245.85845  21828250.13245
       546.551         425.867  
 109309615.866    85176340.8164   20800928.152 8  20800928.16345  20800931.25746
     -2201.887       -1715.780  
 123808640.483    96474275.3614   23560000.675 6  23559999.90742  23560004.87442
     -3705.389       -2887.311  
 108692578.521    84695529.4644   20683507.140 8  20683506.58046  20683510.51346
       507.456         395.419  
 128168370.784                    24389632.339 4                                
     -3051.359                  
 134981535.174   105180434.3064   25686133.240 6  25686130.38841  25686140.52141
      3453.041        2690.767  
 121630575.138    94777093.3334   23145527.740 7  23145527.48443  23145533.39243
     -2268.193       -1767.407  
 130911044.504   102008615.3744   24911544.923 5  24911543.32741  24911549.39341
      1335.238        1040.412  
 01 12 19 14 50 28.0000000  0  9G10G25G30G 5G 6G29G17G24G 1         
 132396165.001   103165868.3054   25194153.698 5  25194151.57141  25194158.96841
      2670.620        2080.988  
 114707670.877    89382614.9854   21828142.568 7  21828142.07645  21828146.21445
       545.826         425.300  
 109311817.971    85178056.7404   20801347.446 8  20801347.31945  20801350.09746
     -2202.522       -1716.247  
 123812345.857    96477162.6594   23560705.613 6  23560704.95342  23560709.52542
     -3705.588       -2887.437  
 108692071.135    84695134.1034   20683410.764 8  20683410.15146  20683414.10046
       506.826         394.926  
 128171421.952                    24390213.263 4                                
     -3051.271                  
 134978081.962   105177743.4794   25685475.078 6  25685473.18041  25685483.71341
      3452.889        2690.527  
 121632843.499    94778860.8914   23145959.806 7  23145959.17643  23145965.37643
     -2268.815       -1767.953  
 130909709.647   102007575.2424   24911290.533 6  24911287.96741  24911296.59541
      1334.191        1039.532  
 01 12 19 14 50 29.0000000  0  9G10G25G30G 5G 6G29G17G24G 1         
 132393494.426   103163787.3284   25193647.222 5  25193644.04841  25193649.21141
      2670.650        2081.031  
 114707125.384    89382189.9294   21828038.725 8  21828038.23345  21828042.25845
       545.141         424.783  
 109314020.741    85179773.1814   20801766.655 8  20801766.52745  20801769.39946
     -2203.053       -1716.661  
 123816051.610    96480050.2544   23561411.182 6  23561409.97142  23561415.08442
     -3705.868       -2887.672  
 108691564.449    84694739.2844   20683314.345 8  20683313.78746  20683317.68646
       506.255         394.480  
 128174473.626                    24390793.051 4                                
     -3052.230                  
 134974628.901   105175052.7674   25684817.736 6  25684816.40141  25684824.57641
      3453.000        2690.705  
 121635112.577    94780628.9974   23146391.467 7  23146390.92143  23146397.25943
     -2269.312       -1768.285  
 130908375.484   102006535.6374   24911037.048 6  24911034.91141  24911041.11941
      1333.560        1039.174  
 01 12 19 14 50 30.0000000  0  9G10G25G30G 5G 6G29G17G24G 1         
 132390823.947   103161706.4434   25193139.877 5  25193135.59341  25193141.29841
      2670.513        2080.968  
 114706580.314    89381765.1954   21827934.823 8  21827934.69245  21827938.64645
       544.752         424.511  
 109316223.798    85181489.8444   20802185.640 8  20802185.66045  20802188.61646
     -2203.262       -1716.801  
 123819757.357    96482937.8514   23562115.954 6  23562115.09342  23562120.32142
     -3705.854       -2887.681  
 108691058.096    84694344.7254   20683218.161 8  20683217.53846  20683221.44446
       506.103         394.382  
 128177525.372                    24391375.268 4                                
     -3052.117                  
 134971175.643   105172361.8894   25684160.729 6  25684158.78241  25684168.26141
      3453.174        2690.907  
 121637382.021    94782397.3864   23146823.652 7  23146822.66343  23146829.14843
     -2269.582       -1768.444  
 130907041.705   102005496.3494   24910784.141 6  24910781.25741  24910787.32741
      1333.687        1039.300  
 01 12 19 14 50 31.0000000  0  9G10G25G30G 5G 6G29G17G24G 1         
 132388153.858   103159625.8714   25192630.193 5  25192628.37041  25192632.41141
      2669.815        2080.339  
 114706036.017    89381341.0714   21827831.392 7  21827831.12745  21827835.36045
       543.981         423.878  
 109318427.477    85183206.9964   20802604.578 8  20802604.93645  20802608.03245
     -2203.946       -1717.354  
 123823463.450    96485825.7084   23562820.603 6  23562820.16642  23562825.02442
     -3706.248       -2887.971  
 108690552.401    84693950.6794   20683121.877 8  20683121.30146  20683124.95746
       505.435         393.845  
 128180578.092                    24391955.431 4                                
     -3052.155                  
 134967722.495   105169671.1034   25683503.577 6  25683501.78341  25683509.04741
      3452.968        2690.612  
 121639652.155    94784166.3214   23147255.779 7  23147254.63843  23147260.99443
     -2270.358       -1769.083  
 130905708.634   102004457.5834   24910530.719 6  24910528.85441  24910532.98941
      1332.542        1038.396  
 01 12 19 14 50 32.0000000  0  9G10G25G30G 5G 6G29G17G24G 1         
 132385484.071   103157545.5194   25192121.271 5  25192119.82541  25192124.53341
      2669.275        2079.942  
 114705492.384    89380917.4674   21827728.046 8  21827727.77745  21827731.75945
       543.205         423.280  
 109320631.675    85184924.5634   20803024.356 8  20803024.28745  20803027.42046
     -2204.655       -1717.928  
 123827169.763    96488713.7564   23563525.806 6  23563525.38342  23563530.17542
     -3706.631       -2888.319  
 108690047.279    84693557.0784   20683025.611 8  20683025.23946  20683028.89646
       504.667         393.262  
 128183630.680                    24392537.873 4                                
     -3052.955                  
 134964269.362   105166980.3254   25682846.852 6  25682843.94941  25682853.97641
      3453.096        2690.594  
 121641922.854    94785935.7024   23147687.518 7  23147686.74843  23147692.90443
     -2271.058       -1769.668  
 130904376.159   102003419.3074   24910277.054 6  24910275.70841  24910279.49341
      1332.003        1037.916  
 01 12 19 14 50 33.0000000  0  9G10G25G30G 5G 6G29G17G24G 1         
 132382814.334   103155465.2304   25191613.372 5  25191611.64141  25191617.29441
      2669.974        2080.526  
 114704949.156    89380494.1724   21827624.809 8  21827624.25945  21827628.53845
       543.198         423.286  
 109322836.153    85186642.3344   20803444.015 8  20803443.89445  20803446.96346
     -2204.525       -1717.809  
 123830876.036    96491601.7574   23564230.780 6  23564230.34642  23564235.36942
     -3706.117       -2887.879  
 108689542.460    84693163.7144   20682929.535 8  20682929.10645  20682932.71746
       504.828         393.377  
 128186683.371                    24393118.459 4                                
     -3052.636                  
 134960816.007   105164289.3854   25682189.841 6  25682188.79141  25682196.63341
      3453.717        2691.276  
 121644193.906    94787705.3614   23148119.603 7  23148118.78443  23148124.59743
     -2271.104       -1769.696  
 130903044.019   102002381.2714   24910022.984 6  24910021.80341  24910027.01341
      1331.958        1037.855  
 01 12 19 14 50 34.0000000  0  9G10G25G30G 5G 6G29G17G24G 1         
 132380144.566   103153384.9064   25191107.187 5  25191102.86941  25191109.30441
      2669.406        2080.029  
 114704406.210    89380071.0984   21827521.464 8  21827521.02645  21827525.12145
       542.489         422.732  
 109325040.755    85188360.2074   20803863.480 8  20803863.44345  20803866.45145
     -2204.923       -1718.129  
 123834582.147    96494489.6214   23564935.055 6  23564935.40542  23564940.79242
     -3706.191       -2887.905  
 108689037.820    84692770.4934   20682833.740 8  20682833.05746  20682836.88146
       504.218         392.894  
 128189736.038                    24393698.207 4                                
     -3052.970                  
 134957362.324   105161598.2104   25681532.536 6  25681530.71041  25681537.79241
      3453.469        2691.121  
 121646465.153    94789475.1584   23148551.990 6  23148551.24943  23148557.13743
     -2271.666       -1770.103  
 130901712.130   102001343.4304   24909769.818 6  24909768.95741  24909773.48741
      1331.497        1037.570  
 01 12 19 14 50 35.0000000  0  9G10G25G30G 5G 6G29G17G24G 1         
 132377474.884   103151304.6234   25190599.989 5  25190595.06841  25190602.67541
      2669.649        2080.222  
 114703863.775    89379648.4194   21827418.052 8  21827417.85045  21827421.75645
       542.012         422.355  
 109327245.737    85190078.3744   20804283.198 8  20804283.16745  20804285.96046
     -2205.352       -1718.442  
 123838288.387    96497377.5894   23565640.774 6  23565640.16742  23565646.21142
     -3706.363       -2888.056  
 108688533.598    84692377.5954   20682737.509 8  20682737.05246  20682740.95546
       503.700         392.496  
 128192788.905                    24394280.273 4                                
     -3053.309                  
 134953908.480   105158906.9304   25680875.079 6  25680873.86841  25680878.48541
      3453.781        2691.161  
 121648736.852    94791245.3094   23148984.179 7  23148983.81043  23148989.55543
     -2272.128       -1770.472  
 130900380.648   102000305.8964   24909517.484 6  24909515.62641  24909520.61741
      1331.174        1037.307  
 01 12 19 14 50 36.0000000  0  9G10G25G30G 5G 6G29G17G24G 1         
 132374805.722   103149224.7534   25190093.586 5  25190086.90341  25190094.12641
      2669.100        2079.810  
 114703322.160    89379226.3884   21827314.607 7  21827314.73045  21827318.79745
       541.293         421.802  
 109329451.388    85191797.0674   20804703.058 8  20804702.95545  20804705.85745
     -2205.861       -1718.844  
 123841994.968    96500265.8234   23566346.905 6  23566346.37942  23566351.65242
     -3706.619       -2888.256  
 108688030.072    84691985.2384   20682641.692 8  20682641.28446  20682645.25446
       503.375         392.262  
 128195842.274                    24394859.810 4                                
     -3053.639                  
 134950454.818   105156215.8084   25680217.685 6  25680215.55141  25680225.67241
      3453.812        2691.301  
 121651009.275    94793016.0224   23149416.021 7  23149416.07543  23149421.67343
     -2272.800       -1771.002  
 130899049.984   101999269.0104   24909263.462 6  24909262.67241  24909266.95541
      1330.480        1036.782  
 01 12 19 14 50 37.0000000  0  9G10G25G30G 5G 6G29G17G24G 1         
 132372136.845   103147145.1194   25189585.902 5  25189578.72541  25189587.36141
      2668.658        2079.510  
 114702781.220    89378804.8824   21827211.786 7  21827211.59645  21827215.91845
       540.381         421.064  
 109331657.568    85193516.1714   20805122.775 8  20805122.84246  20805125.77445
     -2206.611       -1719.446  
 123845701.785    96503154.2474   23567052.657 6  23567051.60442  23567057.24342
     -3707.181       -2888.744  
 108687527.129    84691593.3394   20682545.820 8  20682545.51046  20682549.46046
       502.629         391.641  
 128198896.005                    24395442.966 4                                
     -3054.402                  
 134947001.189   105153524.6584   25679560.510 6  25679558.95541  25679567.94741
      3453.607        2691.169  
 121653282.283    94794787.2044   23149848.223 7  23149848.64443  23149854.09143
     -2273.421       -1771.498  
 130897719.904   101998232.5934   24909010.465 6  24909010.10941  24909012.91241
      1329.572        1036.039  
 01 12 19 14 50 38.0000000  0  9G10G25G30G 5G 6G29G17G24G 1         
 132369468.428   103145065.8414   25189076.954 5  25189071.42141  25189080.68041
      2668.602        2079.305  
 114702241.061    89378383.9824   21827109.117 8  21827108.81545  21827112.95445
       539.924         420.727  
 109333864.394    85195235.7724   20805542.889 8  20805542.77446  20805545.59245
     -2206.981       -1719.727  
 123849408.955    96506042.9644   23567757.552 6  23567757.16242  23567762.58842
     -3707.164       -2888.649  
 108687024.882    84691201.9774   20682450.515 8  20682449.92946  20682453.92746
       502.034         391.200  
 128201950.227                    24396022.158 4                                
     -3054.186                  
 134943547.741   105150833.6194   25678903.563 6  25678902.67741  25678912.85841
      3453.484        2691.083  
 121655555.997    94796558.9394   23150281.064 7  23150281.07043  23150286.72443
     -2273.845       -1771.819  
 130896390.560   101997196.7364   24908757.607 6  24908756.28541  24908761.37941
      1329.263        1035.739  
 01 12 19 14 50 39.0000000  0  9G10G25G30G 5G 6G29G17G24G 1         
 132366800.035   103142986.5754   25188567.458 5  25188564.70441  25188574.20641
      2668.774        2079.528  
 114701701.324    89377963.4034   21827006.021 7  21827006.13545  21827010.43545
       539.680         420.531  
 109336071.508    85196955.6024   20805962.619 8  20805962.70945  20805965.51946
     -2207.210       -1719.914  
 123853116.103    96508931.6624   23568463.648 6  23568463.26342  23568468.40042
     -3706.928       -2888.533  
 108686522.950    84690810.8614   20682355.062 8  20682354.43646  20682358.40546
       501.837         391.035  
 128205004.540                    24396601.038 4                                
     -3053.841                  
 134940094.040   105148142.4254   25678246.638 6  25678246.77241  25678255.39141
      3454.008        2691.297  
 121657830.086    94798330.9624   23150714.280 6  23150713.75843  23150719.88743
     -2274.002       -1771.976  
 130895061.561   101996161.1514   24908503.749 6  24908503.37941  24908508.60541
      1329.064        1035.623  
 01 12 19 14 50 40.0000000  0  9G10G25G30G 5G 6G29G17G24G 1         
 132364132.174   103140907.7234   25188057.943 5  25188057.19541  25188065.07941
      2667.090        2078.209  
 114701162.392    89377543.4624   21826903.517 8  21826903.47145  21826907.93745
       538.133         419.320  
 109338279.300    85198675.9654   20806382.653 8  20806382.83645  20806385.76746
     -2208.573       -1720.960  
 123856823.651    96511820.6714   23569169.767 6  23569169.03842  23569173.89842
     -3708.207       -2889.507  
 108686021.714    84690420.2934   20682259.531 8  20682259.00845  20682263.03645
       500.451         389.958  
 128208059.339                    24397182.081 4                                
     -3055.514                  
 134936640.498   105145451.3974   25677588.451 6  25677587.84841  25677598.98341
      3453.042        2690.781  
 121660104.870    94800103.5134   23151147.071 7  23151146.55443  23151152.74343
     -2275.536       -1773.157  
 130893733.335   101995126.1734   24908250.413 6  24908250.33341  24908255.44241
      1327.395        1034.354  
 01 12 19 14 50 41.0000000  0  9G10G25G30G 5G 6G29G17G24G 1         
 132361464.526   103138829.0404   25187550.407 5  25187548.79541  25187556.89241
      2667.901        2078.923  
 114700624.118    89377124.0294   21826801.667 7  21826801.06845  21826805.55445
       538.128         419.305  
 109340487.596    85200396.7134   20806802.748 8  20806803.15545  20806806.15546
     -2208.418       -1720.849  
 123860531.401    96514709.8314   23569875.154 6  23569874.42842  23569879.27942
     -3707.761       -2889.195  
 108685521.050    84690030.1654   20682164.042 8  20682163.61745  20682167.76746
       500.538         390.009  
 128211114.531                    24397766.426 4                                
     -3055.510                  
 134933186.996   105142760.3374   25676930.893 6  25676930.34341  25676940.77541
      3453.671        2691.085  
 121662380.259    94801876.5484   23151580.258 7  23151579.33943  23151585.75243
     -2275.353       -1773.028  
 130892405.701   101994091.6434   24907998.091 6  24907997.22241  24908002.86441
      1327.520        1034.400  
 01 12 19 14 50 42.0000000  0  9G10G25G30G 5G 6G29G17G24G 1         
 132358797.136   103136750.5744   25187043.142 5  25187040.10641  25187048.90541
      2667.061        2078.219  
 114700086.342    89376704.9844   21826699.168 8  21826698.70045  21826703.10245
       537.566         418.874  
 109342696.234    85202117.7284   20807223.311 8  20807223.43345  20807226.55046
     -2208.771       -1721.119  
 123864239.224    96517599.0374   23570580.141 6  23570580.34042  23570584.39242
     -3707.805       -2889.215  
 108685020.763    84689640.3334   20682068.696 8  20682068.34446  20682072.45846
       500.144         389.710  
 128214169.867                    24398347.055 4                                
     -3055.616                  
 134929733.351   105140069.1654   25676274.431 6  25676272.90841  25676283.66841
      3453.763        2691.266  
 121664656.060    94803649.8894   23152013.197 7  23152012.33543  23152018.79343
     -2275.840       -1773.388  
 130891078.496   101993057.4614   24907746.391 6  24907744.99041  24907750.20641
      1327.007        1033.989  
 01 12 19 14 50 43.0000000  0  9G10G25G30G 5G 6G29G17G24G 1         
 132356129.799   103134672.1224   25186533.351 5  25186534.68041  25186539.41341
      2667.721        2078.713  
 114699549.108    89376286.3624   21826596.764 8  21826596.41345  21826600.94545
       537.026         418.456  
 109344905.273    85203839.0564   20807644.118 8  20807643.77546  20807646.79746
     -2209.149       -1721.418  
 123867947.162    96520488.3284   23571285.565 6  23571285.95442  23571289.64942
     -3707.985       -2889.290  
 108684520.922    84689250.8504   20681973.760 8  20681973.46946  20681977.37346
       499.639         389.332  
 128217225.443                    24398928.191 4                                
     -3055.867                  
 134926279.612   105137377.9594   25675617.356 6  25675615.56441  25675625.80941
      3453.706        2691.102  
 121666932.323    94805423.5974   23152446.261 7  23152445.37243  23152451.91543
     -2276.575       -1773.949  
 130889751.738   101992023.6294   24907492.768 6  24907491.27441  24907497.91041
      1326.729        1033.776  
 01 12 19 14 50 44.0000000  0  9G10G25G30G 5G 6G29G17G24G 1         
 132353462.963   103132594.0794   25186026.753 5  25186026.85541  25186031.47041
      2666.601        2077.812  
 114699012.662    89375868.3544   21826494.919 8  21826494.49645  21826498.90945
       535.867         417.552  
 109347114.987    85205560.9164   20808064.417 8  20808064.22546  20808067.22346
     -2210.181       -1722.218  
 123871655.422    96523377.8694   23571991.382 6  23571991.59742  23571995.52442
     -3708.681       -2889.884  
 108684021.771    84688861.9014   20681878.947 8  20681878.48346  20681882.36446
       498.612         388.526  
 128220281.504                    24399510.156 4                                
     -3056.296                  
 134922825.982   105134686.7924   25674960.597 6  25674957.98641  25674969.42441
      3453.480        2691.090  
 121669209.276    94807197.8614   23152878.763 6  23152878.40243  23152884.86143
     -2277.598       -1774.786  
 130888425.767   101990990.4164   24907241.101 6  24907239.17841  24907245.73441
      1325.499        1032.855  
 01 12 19 14 50 45.0000000  0  9G10G25G30G 5G 6G29G17G24G 1         
 132350796.228   103130516.1044   25185521.620 5  25185520.02341  25185522.91641
      2666.492        2077.777  
 114698476.647    89375450.6784   21826392.713 8  21826392.37445  21826396.78445
       535.703         417.431  
 109349324.976    85207282.9894   20808484.533 8  20808484.84345  20808487.81546
     -2210.289       -1722.287  
 123875363.692    96526267.4384   23572697.995 6  23572697.35742  23572701.36242
     -3708.537       -2889.826  
 108683522.951    84688473.2114   20681784.274 8  20681783.73846  20681787.47446
       498.598         388.521  
 128223337.704                    24400090.709 4                                
     -3056.895                  
 134919372.151   105131995.4834   25674303.072 6  25674301.88541  25674310.92641
      3453.630        2691.194  
 121671486.609    94808972.4014   23153312.849 7  23153312.05043  23153317.98143
     -2277.662       -1774.798  
 130887100.122   101989957.4204   24906989.377 6  24906987.13841  24906992.46641
      1325.062        1032.578  
 01 12 19 14 50 46.0000000  0  9G10G25G30G 5G 6G29G17G24G 1         
 132348129.710   103128438.3074   25185014.276 5  25185014.11241  25185017.33041
      2666.027        2077.386  
 114697941.239    89375033.4754   21826290.905 8  21826290.67845  21826294.74345
       534.838         416.751  
 109351535.441    85209005.4254   20808904.670 8  20808905.36345  20808908.42345
     -2210.970       -1722.830  
 123879072.144    96529157.1304   23573402.901 6  23573402.32042  23573406.82942
     -3708.651       -2889.800  
 108683024.634    84688084.9124   20681689.412 8  20681688.85446  20681692.63346
       497.794         387.903  
 128226394.153                    24400672.682 4                                
     -3056.573                  
 134915918.289   105129304.1524   25673645.565 6  25673645.14841  25673654.12641
      3453.755        2691.221  
 121673764.437    94810747.3374   23153746.516 6  23153746.00143  23153751.98143
     -2278.296       -1775.316  
 130885775.065   101988924.9124   24906736.894 6  24906734.76841  24906741.33141
      1324.458        1032.041  
 01 12 19 14 50 47.0000000  0  9G10G25G30G 5G 6G29G17G24G 1         
 132345463.442   103126360.6834   25184508.141 5  25184505.40041  25184511.08941
      2666.165        2077.455  
 114697406.399    89374616.7214   21826189.266 8  21826188.83945  21826192.99245
       534.539         416.531  
 109353746.308    85210728.1804   20809325.717 8  20809326.07445  20809329.32245
     -2211.112       -1722.946  
 123882780.731    96532046.9424   23574109.439 6  23574107.94842  23574112.97342
     -3708.826       -2890.052  
 108682526.780    84687696.9764   20681594.392 7  20681594.14046  20681598.02746
       497.620         387.760  
 128229450.869                    24401254.549 4                                
     -3056.976                  
 134912464.387   105126612.8074   25672988.586 6  25672989.07641  25672998.11141
      3453.915        2691.300  
 121676042.806    94812522.6904   23154180.045 7  23154179.57343  23154185.60243
     -2278.742       -1775.606  
 130884450.493   101987892.7684   24906485.020 6  24906482.31641  24906489.73241
      1324.397        1032.062  
 01 12 19 14 50 48.0000000  0  9G10G25G30G 5G 6G29G17G24G 1         
 132342797.472   103124283.3194   25184001.537 5  25183997.91841  25184003.08041
      2666.362        2077.727  
 114696872.209    89374200.4724   21826087.511 7  21826087.16145  21826091.32445
       534.434         416.433  
 109355957.701    85212451.3464   20809746.853 8  20809746.93145  20809750.10746
     -2211.065       -1722.915  
 123886489.516    96534936.8994   23574815.849 6  23574814.14242  23574819.20242
     -3708.351       -2889.603  
 108682029.473    84687309.4704   20681499.741 8  20681499.38146  20681503.28746
       497.596         387.740  
 128232507.955                    24401837.704 4                                
     -3056.733                  
 134909010.447   105123921.4044   25672331.395 6  25672331.23541  25672340.47541
      3454.604        2691.806  
 121678321.721    94814298.4734   23154614.033 7  23154613.22843  23154619.48943
     -2278.711       -1775.651  
 130883126.501   101986861.0794   24906234.109 6  24906231.44241  24906237.93441
      1324.340        1031.945  
 01 12 19 14 50 49.0000000  0  9G10G25G30G 5G 6G29G17G24G 1         
 132340131.872   103122206.2344   25183494.446 5  25183491.66741  25183497.60341
      2665.179        2076.705  
 114696338.770    89373784.8054   21825985.959 7  21825985.79145  21825989.56045
       533.144         415.431  
 109358169.701    85214174.9774   20810167.699 8  20810167.86845  20810170.98745
     -2212.332       -1723.882  
 123890198.611    96537827.1044   23575521.562 6  23575520.05042  23575525.85542
     -3709.197       -2890.357  
 108681532.832    84686922.4774   20681405.200 8  20681404.76346  20681408.67046
       496.259         386.712  
 128235565.519                    24402419.441 4                                
     -3058.490                  
 134905556.673   105121230.1634   25671674.049 6  25671673.17241  25671683.35841
      3453.799        2691.245  
 121680601.311    94816074.7864   23155048.036 7  23155046.99343  23155053.11743
     -2279.901       -1776.569  
 130881803.243   101985829.9774   24905981.640 6  24905980.40341  24905985.56141
      1322.955        1030.911  
 01 12 19 14 50 50.0000000  0  9G10G25G30G 5G 6G29G17G24G 1         
 132337466.572   103120129.4054   25182987.933 5  25182984.47541  25182989.71941
      2665.016        2076.640  
 114695805.979    89373369.6464   21825884.341 7  21825884.27045  21825888.23145
       532.373         414.823  
 109360382.201    85215899.0044   20810588.386 8  20810588.93945  20810592.02746
     -2212.845       -1724.302  
 123893907.939    96540717.4884   23576227.611 6  23576226.20342  23576231.90642
     -3709.504       -2890.504  
 108681036.713    84686535.8914   20681310.770 8  20681310.30746  20681314.23246
       495.801         386.345  
 128238623.302                    24402999.690 4                                
     -3058.202                  
 134902102.885   105118538.9014   25671016.462 6  25671015.93741  25671027.66541
      3453.699        2691.226  
 121682881.464    94817851.5284   23155482.075 7  23155481.41243  23155487.37543
     -2280.560       -1777.076  
 130880480.544   101984799.2944   24905729.521 6  24905728.39541  24905733.42941
      1322.411        1030.402  
 01 12 19 14 50 51.0000000  0  9G10G25G30G 5G 6G29G17G24G 1         
 132334801.690   103118052.8824   25182481.396 5  25182477.34341  25182481.60641
      2664.629        2076.357  
 114695273.994    89372955.1164   21825782.982 7  21825782.99345  21825786.93945
       531.531         414.152  
 109362595.382    85217623.5644   20811009.804 8  20811010.07845  20811013.13845
     -2213.587       -1724.889  
 123897617.631    96543608.1584   23576933.569 6  23576932.65242  23576937.25842
     -3710.100       -2890.991  
 108680541.315    84686149.8674   20681216.538 8  20681216.16245  20681220.09046
       494.921         385.633  
 128241681.613                    24403581.720 4                                
     -3058.365                  
 134898649.289   105115847.7884   25670359.848 6  25670359.10041  25670371.00441
      3453.595        2691.143  
 121685162.346    94819628.8354   23155915.504 7  23155915.61743  23155921.39443
     -2281.495       -1777.790  
 130879158.613   101983769.2144   24905478.350 5  24905477.43041  24905482.92341
      1321.395        1029.727  
 01 12 19 14 50 52.0000000  0  9G10G25G30G 5G 6G29G17G24G 1         
 132332137.044   103115976.5324   25181973.632 5  25181971.59041  25181974.11041
      2664.144        2075.980  
 114694742.507    89372540.9694   21825682.083 7  21825681.81445  21825685.91345
       530.883         413.649  
 109364808.919    85219348.3984   20811431.133 8  20811431.25345  20811434.44145
     -2213.972       -1725.189  
 123901327.379    96546498.8704   23577639.400 6  23577638.69642  23577642.54542
     -3710.008       -2890.931  
 108680046.312    84685764.1524   20681122.295 8  20681121.85546  20681125.82046
       494.484         385.306  
 128244740.104                    24404165.888 4                                
     -3058.853                  
 134895195.548   105113156.5694   25669702.411 6  25669702.04341  25669713.23941
      3453.785        2691.279  
 121687443.653    94821406.4834   23156349.652 7  23156350.05043  23156355.79843
     -2281.681       -1777.984  
 130877837.115   101982739.4984   24905226.245 5  24905225.03441  24905231.20341
      1321.100        1029.375  
 01 12 19 14 50 53.0000000  0  9G10G25G30G 5G 6G29G17G24G 1         
 132329472.737   103113900.4254   25181467.503 5  25181462.79041  25181466.82541
      2663.992        2075.874  
 114694211.813    89372127.4444   21825581.074 7  21825580.79745  21825584.99745
       530.242         413.162  
 109367023.111    85221073.7454   20811852.349 8  20811852.54445  20811855.78045
     -2214.724       -1725.785  
 123905037.500    96549389.8664   23578344.422 6  23578344.21642  23578348.91642
     -3710.208       -2891.074  
 108679552.003    84685378.9794   20681028.141 8  20681027.82846  20681031.89246
       493.900         384.844  
 128247799.128                    24404747.314 4                                
     -3059.190                  
 134891741.992   105110465.4804   25669045.089 6  25669044.78641  25669056.56241
      3453.303        2690.893  
 121689725.671    94823184.6674   23156784.092 6  23156784.29843  23156789.98443
     -2282.390       -1778.482  
 130876516.265   101981710.2804   24904975.232 5  24904973.89341  24904981.27741
      1320.462        1028.861  
 01 12 19 14 50 54.0000000  0  9G10G25G30G 5G 6G29G17G24G 1         
 132326808.944   103111824.7714   25180958.840 5  25180955.34741  25180960.86141
      2663.487        2075.401  
 114693681.912    89371714.5354   21825480.690 8  21825479.96245  21825484.26445
       529.404         412.521  
 109369237.949    85222799.5904   20812273.870 8  20812274.04745  20812277.25446
     -2215.288       -1726.205  
 123908747.972    96552281.1344   23579050.998 6  23579050.46242  23579055.26842
     -3710.712       -2891.453  
